$GPRMC,181307.677,A,4221.1305,N,00341.4102,W,16.51,198.30,090219,,,A*46

$GPRMC,181311.000,A,4221.1274,N,00341.4141,W,12.67,192.36,090219,,,A*4A

$GPRMC,181312.000,A,4221.1239,N,00341.4155,W,12.22,190.82,090219,,,A*49

$GPRMC,181313.000,A,4221.1208,N,00341.4168,W,11.93,189.61,090219,,,A*48

$GPRMC,181314.000,A,4221.1185,N,00341.4178,W,11.60,190.09,090219,,,A*42

$GPRMC,181346.000,A,4221.1287,N,00341.4191,W,1.72,314.13,090219,,,A*74
$GPRMC,181347.000,A,4221.1295,N,00341.4198,W,2.50,302.81,090219,,,A*70
$GPRMC,181348.000,A,4221.1310,N,00341.4212,W,4.28,304.00,090219,,,A*74
$GPRMC,181349.000,A,4221.1324,N,00341.4227,W,7.32,323.15,090219,,,A*7D
$GPRMC,181350.000,A,4221.1345,N,00341.4243,W,8.95,332.47,090219,,,A*75
$GPRMC,181351.000,A,4221.1372,N,00341.4257,W,9.51,336.97,090219,,,A*75
$GPRMC,181352.000,A,4221.1405,N,00341.4270,W,10.96,338.04,090219,,,A*43

$GPRMC,181353.000,A,4221.1446,N,00341.4286,W,15.25,340.59,090219,,,A*46

$GPRMC,181354.000,A,4221.1490,N,00341.4307,W,17.01,339.53,090219,,,A*42

$GPRMC,181355.000,A,4221.1535,N,00341.4330,W,18.14,338.92,090219,,,A*4E

$GPRMC,181356.000,A,4221.1585,N,00341.4355,W,18.69,338.94,090219,,,A*49

$GPRMC,181357.000,A,4221.1637,N,00341.4380,W,18.63,338.02,090219,,,A*4F

$GPRMC,181358.000,A,4221.1688,N,00341.4407,W,18.69,337.75,090219,,,A*49

$GPRMC,181359.000,A,4221.1738,N,00341.4433,W,19.35,338.39,090219,,,A*4A

$GPRMC,181400.000,A,4221.1788,N,00341.4461,W,20.08,338.50,090219,,,A*46

$GPRMC,181401.000,A,4221.1840,N,00341.4490,W,20.09,337.14,090219,,,A*4C

$GPRMC,181402.000,A,4221.1895,N,00341.4519,W,20.32,337.21,090219,,,A*49

$GPRMC,181403.000,A,4221.1951,N,00341.4547,W,20.35,338.79,090219,,,A*4F

$GPRMC,181404.000,A,4221.2004,N,00341.4573,W,20.52,341.37,090219,,,A*40

$GPRMC,181405.000,A,4221.2053,N,00341.4597,W,19.37,341.43,090219,,,A*43

$GPRMC,181406.000,A,4221.2097,N,00341.4624,W,18.13,337.43,090219,,,A*45

$GPRMC,181407.000,A,4221.2141,N,00341.4648,W,17.22,338.56,090219,,,A*42

$GPRMC,181408.000,A,4221.2187,N,00341.4668,W,16.25,337.46,090219,,,A*4D

$GPRMC,181409.000,A,4221.2227,N,00341.4687,W,14.50,339.16,090219,,,A*4F

$GPRMC,181449.000,A,4221.2282,N,00341.4715,W,0.04,351.19,090219,,,A*7B
$GPRMC,181450.000,A,4221.2282,N,00341.4715,W,0.05,351.19,090219,,,A*72
$GPRMC,181451.000,A,4221.2282,N,00341.4715,W,1.11,351.19,090219,,,A*77
$GPRMC,181452.000,A,4221.2285,N,00341.4718,W,5.15,338.98,090219,,,A*78
$GPRMC,181453.000,A,4221.2303,N,00341.4727,W,7.97,340.18,090219,,,A*75
$GPRMC,181454.000,A,4221.2326,N,00341.4737,W,8.04,343.35,090219,,,A*7D
$GPRMC,181455.000,A,4221.2350,N,00341.4745,W,8.59,346.95,090219,,,A*7F
$GPRMC,181456.000,A,4221.2375,N,00341.4751,W,8.51,351.97,090219,,,A*72
$GPRMC,181457.000,A,4221.2401,N,00341.4748,W,8.12,14.01,090219,,,A*45
$GPRMC,181458.000,A,4221.2423,N,00341.4738,W,8.28,20.21,090219,,,A*41
$GPRMC,181459.000,A,4221.2438,N,00341.4720,W,7.27,44.11,090219,,,A*42
$GPRMC,181500.000,A,4221.2444,N,00341.4695,W,6.77,74.58,090219,,,A*41
$GPRMC,181501.000,A,4221.2441,N,00341.4669,W,6.15,103.70,090219,,,A*79
$GPRMC,181502.000,A,4221.2423,N,00341.4642,W,8.66,137.22,090219,,,A*7D
$GPRMC,181503.000,A,4221.2405,N,00341.4618,W,9.62,141.49,090219,,,A*7E
$GPRMC,181504.000,A,4221.2381,N,00341.4588,W,11.36,140.44,090219,,,A*4C

$GPRMC,181505.000,A,4221.2353,N,00341.4553,W,13.48,138.11,090219,,,A*40

$GPRMC,181506.000,A,4221.2320,N,00341.4509,W,15.65,136.10,090219,,,A*4E

$GPRMC,181512.000,A,4221.2146,N,00341.4164,W,22.06,112.96,090219,,,A*4F

$GPRMC,181513.000,A,4221.2122,N,00341.4088,W,22.27,111.89,090219,,,A*41

$GPRMC,181514.000,A,4221.2096,N,00341.4009,W,22.81,112.30,090219,,,A*4C

$GPRMC,181515.000,A,4221.2070,N,00341.3929,W,22.78,112.36,090219,,,A*49

$GPRMC,181516.000,A,4221.2041,N,00341.3849,W,23.37,112.63,090219,,,A*45

$GPRMC,181518.000,A,4221.1983,N,00341.3681,W,24.86,113.24,090219,,,A*4A

$GPRMC,181520.000,A,4221.1927,N,00341.3505,W,25.86,113.09,090219,,,A*4E

$GPRMC,181522.000,A,4221.1871,N,00341.3322,W,26.75,112.13,090219,,,A*48

$GPRMC,181523.000,A,4221.1839,N,00341.3226,W,28.22,113.23,090219,,,A*4E

$GPRMC,181524.000,A,4221.1805,N,00341.3130,W,28.29,113.33,090219,,,A*48

$GPRMC,181525.000,A,4221.1771,N,00341.3034,W,28.37,112.64,090219,,,A*4C

$GPRMC,181526.000,A,4221.1741,N,00341.2937,W,28.69,112.58,090219,,,A*43

$GPRMC,181527.000,A,4221.1711,N,00341.2841,W,28.79,113.50,090219,,,A*4F

$GPRMC,181528.000,A,4221.1683,N,00341.2745,W,28.90,112.91,090219,,,A*4A

$GPRMC,181529.000,A,4221.1651,N,00341.2648,W,29.01,114.95,090219,,,A*43

$GPRMC,181530.000,A,4221.1620,N,00341.2551,W,29.00,113.53,090219,,,A*4A

$GPRMC,181531.000,A,4221.1589,N,00341.2455,W,27.87,112.92,090219,,,A*43

$GPRMC,181532.000,A,4221.1557,N,00341.2360,W,27.48,112.37,090219,,,A*4E

$GPRMC,181533.000,A,4221.1525,N,00341.2268,W,27.21,111.71,090219,,,A*4D

$GPRMC,181534.000,A,4221.1497,N,00341.2178,W,26.65,111.08,090219,,,A*4F

$GPRMC,181535.000,A,4221.1468,N,00341.2093,W,25.44,112.47,090219,,,A*42

$GPRMC,181536.000,A,4221.1446,N,00341.2014,W,22.05,111.74,090219,,,A*43

$GPRMC,181537.000,A,4221.1427,N,00341.1949,W,19.22,112.84,090219,,,A*46

$GPRMC,181538.000,A,4221.1413,N,00341.1890,W,16.33,113.55,090219,,,A*49

$GPRMC,181539.000,A,4221.1408,N,00341.1841,W,12.65,116.62,090219,,,A*48

$GPRMC,181540.000,A,4221.1396,N,00341.1805,W,10.02,130.22,090219,,,A*45

$GPRMC,181541.000,A,4221.1377,N,00341.1785,W,8.88,152.01,090219,,,A*72
$GPRMC,181542.000,A,4221.1361,N,00341.1783,W,7.08,174.97,090219,,,A*7C
$GPRMC,181543.000,A,4221.1354,N,00341.1805,W,6.37,228.90,090219,,,A*7A
$GPRMC,181544.000,A,4221.1350,N,00341.1839,W,8.65,257.07,090219,,,A*79
$GPRMC,181545.000,A,4221.1345,N,00341.1879,W,10.35,262.31,090219,,,A*47

$GPRMC,181546.000,A,4221.1336,N,00341.1925,W,11.73,258.69,090219,,,A*4F

$GPRMC,181547.000,A,4221.1324,N,00341.1977,W,13.02,255.12,090219,,,A*4F

$GPRMC,181549.000,A,4221.1276,N,00341.2104,W,17.26,243.56,090219,,,A*4D

$GPRMC,181550.000,A,4221.1248,N,00341.2170,W,18.30,240.53,090219,,,A*45

$GPRMC,181551.000,A,4221.1219,N,00341.2235,W,19.15,239.39,090219,,,A*46

$GPRMC,181552.000,A,4221.1191,N,00341.2299,W,19.80,236.76,090219,,,A*48

$GPRMC,181553.000,A,4221.1154,N,00341.2368,W,20.79,235.13,090219,,,A*43

$GPRMC,181554.000,A,4221.1115,N,00341.2438,W,21.30,234.42,090219,,,A*4A

$GPRMC,181555.000,A,4221.1073,N,00341.2507,W,21.03,235.51,090219,,,A*44

$GPRMC,181556.000,A,4221.1034,N,00341.2575,W,20.36,235.82,090219,,,A*48

$GPRMC,181557.000,A,4221.0995,N,00341.2641,W,20.07,236.65,090219,,,A*46

$GPRMC,181558.000,A,4221.0953,N,00341.2707,W,20.03,236.13,090219,,,A*45

$GPRMC,181559.000,A,4221.0910,N,00341.2772,W,19.51,237.95,090219,,,A*43

$GPRMC,181600.000,A,4221.0863,N,00341.2839,W,19.80,238.01,090219,,,A*47

$GPRMC,181601.000,A,4221.0817,N,00341.2905,W,19.84,236.69,090219,,,A*4F

$GPRMC,181602.000,A,4221.0775,N,00341.2969,W,19.83,234.91,090219,,,A*4F

$GPRMC,181603.000,A,4221.0740,N,00341.3031,W,19.01,236.40,090219,,,A*49

$GPRMC,181604.000,A,4221.0706,N,00341.3091,W,18.54,235.43,090219,,,A*47

$GPRMC,181605.000,A,4221.0676,N,00341.3149,W,18.10,234.76,090219,,,A*43

$GPRMC,181606.000,A,4221.0649,N,00341.3202,W,16.97,234.48,090219,,,A*4C

$GPRMC,181607.000,A,4221.0626,N,00341.3251,W,15.63,234.99,090219,,,A*46

$GPRMC,181609.000,A,4221.0591,N,00341.3335,W,12.09,236.04,090219,,,A*49

$GPRMC,181610.000,A,4221.0581,N,00341.3363,W,8.94,238.73,090219,,,A*72
$GPRMC,181614.000,A,4221.0564,N,00341.3416,W,0.10,259.49,090219,,,A*72
$GPRMC,181615.000,A,4221.0560,N,00341.3416,W,0.19,259.49,090219,,,A*7E
$GPRMC,181643.000,A,4221.0565,N,00341.3422,W,0.00,259.49,090219,,,A*77
$GPRMC,181644.000,A,4221.0565,N,00341.3422,W,0.00,259.49,090219,,,A*70
$GPRMC,181645.000,A,4221.0565,N,00341.3422,W,0.00,259.49,090219,,,A*71
$GPRMC,181646.000,A,4221.0565,N,00341.3422,W,0.00,259.49,090219,,,A*72
$GPRMC,181647.000,A,4221.0565,N,00341.3422,W,0.00,259.49,090219,,,A*73
$GPRMC,181648.000,A,4221.0545,N,00341.3443,W,7.32,229.25,090219,,,A*72
$GPRMC,181649.000,A,4221.0526,N,00341.3467,W,7.26,233.89,090219,,,A*78
$GPRMC,181650.000,A,4221.0515,N,00341.3494,W,6.59,241.34,090219,,,A*76
$GPRMC,181651.000,A,4221.0497,N,00341.3524,W,5.63,246.74,090219,,,A*7F
$GPRMC,181652.000,A,4221.0491,N,00341.3552,W,6.04,285.30,090219,,,A*76
$GPRMC,181706.000,A,4221.0451,N,00341.3627,W,0.13,174.67,090219,,,A*74
$GPRMC,181707.000,A,4221.0450,N,00341.3627,W,0.23,174.67,090219,,,A*77
$GPRMC,181708.000,A,4221.0450,N,00341.3627,W,0.25,174.67,090219,,,A*7E
$GPRMC,181711.000,A,4221.0450,N,00341.3631,W,8.33,330.81,090219,,,A*74
$GPRMC,181712.000,A,4221.0468,N,00341.3648,W,8.69,332.19,090219,,,A*7E
$GPRMC,181713.000,A,4221.0488,N,00341.3664,W,10.08,335.32,090219,,,A*4F

$GPRMC,181714.000,A,4221.0512,N,00341.3682,W,12.35,336.96,090219,,,A*43

$GPRMC,181726.000,A,4221.1007,N,00341.3972,W,15.23,337.57,090219,,,A*4E

$GPRMC,181727.000,A,4221.1043,N,00341.3993,W,15.16,337.76,090219,,,A*45

$GPRMC,181728.000,A,4221.1079,N,00341.4014,W,15.44,338.87,090219,,,A*44

